Report Name,Sources Releveance (T/F),Responce Relevance ,location Lat,Location Lon
20-30 Bourke Street Hist Arch Report - Vol 1 Excavation_finalHV.pdf,T,P,-37.81122175,144.97222
4550_Donnybrook Road Homestead H7922-0495.pdf,F,F,-37.53933577,145.0106627
"5172_ Wollert Bluestone House & Outbuildings site H7922-0304, Vol 1.pdf",F,C,-37.62317753,145.039228
5174_Excavation Report 2 H7822-2386_Stationmaster residence.pdf,F,C,-37.75429739,144.961698
5175_Excavation Report 3 H7822-2386_Coburg Station.pdf,T,P,-37.742506,144.9630429
"5178_Archaeological Investigations at The Royal Vic Institute for the Blind, St Kilda.pdf",T,C,-37.84733898,144.9815083
5179_Archaeological Investigations at the Veterinary Research Institute The Uni of Melb .pdf,T,S,-37.79708836,144.953294
5181_H7721-0534 120 Russells Road Mt Duneed Archaeological Monitoring Report 22.02.22.pdf,F,F,-38.2387938,144.3114339
5183_H7822-2391_FinalReport_270422.pdf,T,S,-37.85783415,144.8871972
5184_Historic Cultural Heritage Assessment 121-129 Gray Court Deanside.pdf,T,P,-37.73341723,144.6948545
5185_Historic Cultural Heritage Assessment Wallan East Precinct.pdf,F,F,-37.41527075,145.014208
5187_118-122 Lonsdale Street H7822-1198_final report 21 Dec 2020.pdf,T,P,-37.8100313,144.9686833
5188_H7822-1199 Wesley Church Report _final_04_03_2022.pdf,T,S,-37.81008397,144.9685506
"5190_Consent to Damage (C1746) report, Former Bagshot Railway Station (H7724-0641).pdf",F,C,-36.65207284,144.4095123
5204_GangeBurialGround_H7821-0117.pdf,T,P,-38.15267547,144.5827848
5207_kOCH fAMILY gRAVES sITE (h7922-0252_eXCAVATION rEPORT.pdf,T,B,-37.61966411,145.0302508
5210_Former North Williamstown Station (H7822-2389) - Final Excavation Report.pdf,T,F,-37.85733,144.888849
5211_H7822-2387 Bell Railway Station Archaeological Precinct.pdf,T,P,-37.74484925,145.0004026
H7721-0540_Project Report_v002 reduced-Final.pdf,T,S,-38.19829007,144.3629584
H7822-2400_FinalReport_12072022.pdf,T,F,-37.70063186,144.9168679